<?xml version="1.0"?>
<ArrayOfCustomer xmlns:xsi="http://www.w3.org/2001/XMLSchema-instance" xmlns:xsd="http://www.w3.org/2001/XMLSchema">
  <Customer>
    <Id>100000009</Id>
    <Name>Abraham</Name>
    <Phone>0521540621</Phone>
    <Longitude>31.467385790528443</Longitude>
    <Latitude>36.555661748887815</Latitude>
    <Deleted>false</Deleted>
  </Customer>
  <Customer>
    <Id>100000108</Id>
    <Name>Moshe</Name>
    <Phone>0575835258</Phone>
    <Longitude>30.73657882853252</Longitude>
    <Latitude>34.97494109439428</Latitude>
    <Deleted>false</Deleted>
  </Customer>
  <Customer>
    <Id>100000207</Id>
    <Name>Jacob</Name>
    <Phone>0586056006</Phone>
    <Longitude>29.74436575954052</Longitude>
    <Latitude>35.17460403133864</Latitude>
    <Deleted>false</Deleted>
  </Customer>
  <Customer>
    <Id>100000306</Id>
    <Name>Jacob</Name>
    <Phone>0535307746</Phone>
    <Longitude>29.594124583804106</Longitude>
    <Latitude>35.241041404307374</Latitude>
    <Deleted>false</Deleted>
  </Customer>
  <Customer>
    <Id>100000405</Id>
    <Name>Jacob</Name>
    <Phone>0578543348</Phone>
    <Longitude>30.505220076770158</Longitude>
    <Latitude>35.67609059003931</Latitude>
    <Deleted>false</Deleted>
  </Customer>
  <Customer>
    <Id>100000504</Id>
    <Name>Joseph</Name>
    <Phone>0590066297</Phone>
    <Longitude>29.59107732241558</Longitude>
    <Latitude>33.7902600843414</Latitude>
    <Deleted>false</Deleted>
  </Customer>
  <Customer>
    <Id>100000603</Id>
    <Name>Isaac</Name>
    <Phone>0559428362</Phone>
    <Longitude>30.08291054381193</Longitude>
    <Latitude>35.52415527520895</Latitude>
    <Deleted>false</Deleted>
  </Customer>
  <Customer>
    <Id>100000702</Id>
    <Name>Abraham</Name>
    <Phone>0577559496</Phone>
    <Longitude>30.387925230612943</Longitude>
    <Latitude>33.579140557245886</Latitude>
    <Deleted>false</Deleted>
  </Customer>
  <Customer>
    <Id>100000801</Id>
    <Name>Jacob</Name>
    <Phone>0548793588</Phone>
    <Longitude>30.12084908276836</Longitude>
    <Latitude>35.53368031910326</Latitude>
    <Deleted>false</Deleted>
  </Customer>
  <Customer>
    <Id>100000910</Id>
    <Name>Isaac</Name>
    <Phone>0578207920</Phone>
    <Longitude>31.70398189253359</Longitude>
    <Latitude>35.77615440766148</Latitude>
    <Deleted>false</Deleted>
  </Customer>
</ArrayOfCustomer>