<?xml version="1.0"?>
<ArrayOfCustomer xmlns:xsi="http://www.w3.org/2001/XMLSchema-instance" xmlns:xsd="http://www.w3.org/2001/XMLSchema">
  <Customer>
    <Id>100000009</Id>
    <Name>Abraham</Name>
    <Phone>0529588962</Phone>
    <Longitude>32.13211467076657</Longitude>
    <Latitude>36.93515609201749</Latitude>
    <Deleted>false</Deleted>
  </Customer>
  <Customer>
    <Id>100000108</Id>
    <Name>Joseph</Name>
    <Phone>0596665030</Phone>
    <Longitude>31.613069012115275</Longitude>
    <Latitude>36.81215736633733</Latitude>
    <Deleted>false</Deleted>
  </Customer>
  <Customer>
    <Id>100000207</Id>
    <Name>Moshe</Name>
    <Phone>0523920983</Phone>
    <Longitude>30.13993095100854</Longitude>
    <Latitude>33.275863682979654</Latitude>
    <Deleted>false</Deleted>
  </Customer>
  <Customer>
    <Id>100000306</Id>
    <Name>Joseph</Name>
    <Phone>0553615127</Phone>
    <Longitude>32.48839392489213</Longitude>
    <Latitude>34.82838737677242</Latitude>
    <Deleted>false</Deleted>
  </Customer>
  <Customer>
    <Id>100000405</Id>
    <Name>Moshe</Name>
    <Phone>0515800679</Phone>
    <Longitude>31.439175046253567</Longitude>
    <Latitude>36.42238858315274</Latitude>
    <Deleted>false</Deleted>
  </Customer>
  <Customer>
    <Id>100000504</Id>
    <Name>Jacob</Name>
    <Phone>0529483861</Phone>
    <Longitude>30.11320440895539</Longitude>
    <Latitude>36.00770821562396</Latitude>
    <Deleted>false</Deleted>
  </Customer>
  <Customer>
    <Id>100000603</Id>
    <Name>Isaac</Name>
    <Phone>0598602249</Phone>
    <Longitude>29.370712207802903</Longitude>
    <Latitude>33.90439928737674</Latitude>
    <Deleted>false</Deleted>
  </Customer>
  <Customer>
    <Id>100000702</Id>
    <Name>Joseph</Name>
    <Phone>0599461586</Phone>
    <Longitude>31.24189699545591</Longitude>
    <Latitude>35.82406564374644</Latitude>
    <Deleted>false</Deleted>
  </Customer>
  <Customer>
    <Id>100000801</Id>
    <Name>Joseph</Name>
    <Phone>0546742208</Phone>
    <Longitude>31.639101450629113</Longitude>
    <Latitude>36.067220266474045</Latitude>
    <Deleted>false</Deleted>
  </Customer>
  <Customer>
    <Id>100000910</Id>
    <Name>Isaac</Name>
    <Phone>0589040670</Phone>
    <Longitude>30.340142757324568</Longitude>
    <Latitude>36.81420721477559</Latitude>
    <Deleted>false</Deleted>
  </Customer>
</ArrayOfCustomer>