<?xml version="1.0" encoding="utf-8"?>
<ArrayOfCustomer xmlns:xsi="http://www.w3.org/2001/XMLSchema-instance" xmlns:xsd="http://www.w3.org/2001/XMLSchema">
  <Customer>
    <Id>100000009</Id>
    <Name>Abraham</Name>
    <Phone>0574043072</Phone>
    <Longitude>31.705777644508416</Longitude>
    <Latitude>35.61545069078703</Latitude>
    <Deleted>false</Deleted>
  </Customer>
  <Customer>
    <Id>100000108</Id>
    <Name>Abraham</Name>
    <Phone>0532523084</Phone>
    <Longitude>30.15082071030085</Longitude>
    <Latitude>35.29420069339415</Latitude>
    <Deleted>false</Deleted>
  </Customer>
  <Customer>
    <Id>100000207</Id>
    <Name>Isaac</Name>
    <Phone>0524418873</Phone>
    <Longitude>32.76594479743668</Longitude>
    <Latitude>35.26131609560052</Latitude>
    <Deleted>false</Deleted>
  </Customer>
  <Customer>
    <Id>100000306</Id>
    <Name>Joseph</Name>
    <Phone>0574233261</Phone>
    <Longitude>30.459998856047168</Longitude>
    <Latitude>33.67587161095621</Latitude>
    <Deleted>false</Deleted>
  </Customer>
  <Customer>
    <Id>100000405</Id>
    <Name>Jacob</Name>
    <Phone>0539079390</Phone>
    <Longitude>31.11372138285717</Longitude>
    <Latitude>34.16836028786766</Latitude>
    <Deleted>false</Deleted>
  </Customer>
  <Customer>
    <Id>100000504</Id>
    <Name>Isaac</Name>
    <Phone>0569566474</Phone>
    <Longitude>30.2401852855646</Longitude>
    <Latitude>33.40401673335769</Latitude>
    <Deleted>false</Deleted>
  </Customer>
  <Customer>
    <Id>100000603</Id>
    <Name>Isaac</Name>
    <Phone>0550184206</Phone>
    <Longitude>29.5487015454791</Longitude>
    <Latitude>36.7339887003107</Latitude>
    <Deleted>false</Deleted>
  </Customer>
  <Customer>
    <Id>100000702</Id>
    <Name>Moshe</Name>
    <Phone>0524758845</Phone>
    <Longitude>32.970155278206875</Longitude>
    <Latitude>35.53053737922131</Latitude>
    <Deleted>false</Deleted>
  </Customer>
  <Customer>
    <Id>100000801</Id>
    <Name>Joseph</Name>
    <Phone>0518158655</Phone>
    <Longitude>31.255478282578046</Longitude>
    <Latitude>36.34896860613905</Latitude>
    <Deleted>false</Deleted>
  </Customer>
  <Customer>
    <Id>100000910</Id>
    <Name>Joseph</Name>
    <Phone>0588689449</Phone>
    <Longitude>31.897849970915285</Longitude>
    <Latitude>34.3657183802527</Latitude>
    <Deleted>false</Deleted>
  </Customer>
  <Customer>
    <Id>123456782</Id>
    <Name>xcvb</Name>
    <Phone>0587796687</Phone>
    <Longitude>32</Longitude>
    <Latitude>33</Latitude>
    <Deleted>false</Deleted>
  </Customer>
  <Customer>
    <Id>123456774</Id>
    <Name>wert</Name>
    <Phone>0546789086</Phone>
    <Longitude>33</Longitude>
    <Latitude>37</Latitude>
    <Deleted>false</Deleted>
  </Customer>
  <Customer>
    <Id>987654324</Id>
    <Name>sdfg</Name>
    <Phone>0587654321</Phone>
    <Longitude>32</Longitude>
    <Latitude>35</Latitude>
    <Deleted>false</Deleted>
  </Customer>
  <Customer>
    <Id>206780066</Id>
    <Name>david</Name>
    <Phone>0527211203</Phone>
    <Longitude>33</Longitude>
    <Latitude>37</Latitude>
    <Deleted>false</Deleted>
  </Customer>
  <Customer>
    <Id>319141810</Id>
    <Name>shira</Name>
    <Phone>0527444121</Phone>
    <Longitude>30</Longitude>
    <Latitude>35</Latitude>
    <Deleted>false</Deleted>
  </Customer>
  <Customer>
    <Id>158710988</Id>
    <Name>sd</Name>
    <Phone>0526489464</Phone>
    <Longitude>31</Longitude>
    <Latitude>37</Latitude>
    <Deleted>false</Deleted>
  </Customer>
</ArrayOfCustomer>