<?xml version="1.0"?>
<ArrayOfStation xmlns:xsi="http://www.w3.org/2001/XMLSchema-instance" xmlns:xsd="http://www.w3.org/2001/XMLSchema">
  <Station>
    <Id>100100</Id>
    <Name>Carmel</Name>
    <Longitude>29.183855047535083</Longitude>
    <Latitude>33.243055826166206</Latitude>
    <AvailableChargeSlots>1</AvailableChargeSlots>
    <Deleted>false</Deleted>
  </Station>
  <Station>
    <Id>100110</Id>
    <Name>Jaffa</Name>
    <Longitude>29.61504776990742</Longitude>
    <Latitude>36.254369722332044</Latitude>
    <AvailableChargeSlots>2</AvailableChargeSlots>
    <Deleted>false</Deleted>
  </Station>
  <Station>
    <Id>100120</Id>
    <Name>Bar Ilan</Name>
    <Longitude>31.411838206654338</Longitude>
    <Latitude>35.74278454237747</Latitude>
    <AvailableChargeSlots>7</AvailableChargeSlots>
    <Deleted>false</Deleted>
  </Station>
  <Station>
    <Id>100130</Id>
    <Name>Jaffa</Name>
    <Longitude>30.20276408884803</Longitude>
    <Latitude>35.80568290818747</Latitude>
    <AvailableChargeSlots>2</AvailableChargeSlots>
    <Deleted>false</Deleted>
  </Station>
  <Station>
    <Id>100140</Id>
    <Name>Jaffa</Name>
    <Longitude>31.39520477801338</Longitude>
    <Latitude>36.19388074017776</Latitude>
    <AvailableChargeSlots>6</AvailableChargeSlots>
    <Deleted>false</Deleted>
  </Station>
  <Station>
    <Id>100150</Id>
    <Name>Jaffa</Name>
    <Longitude>31.00669032056196</Longitude>
    <Latitude>35.112759576231596</Latitude>
    <AvailableChargeSlots>7</AvailableChargeSlots>
    <Deleted>false</Deleted>
  </Station>
  <Station>
    <Id>100160</Id>
    <Name>Jaffa</Name>
    <Longitude>30.059338517980343</Longitude>
    <Latitude>36.420919429241174</Latitude>
    <AvailableChargeSlots>1</AvailableChargeSlots>
    <Deleted>false</Deleted>
  </Station>
  <Station>
    <Id>100170</Id>
    <Name>Palmach</Name>
    <Longitude>32.817786252041245</Longitude>
    <Latitude>34.57169737367504</Latitude>
    <AvailableChargeSlots>2</AvailableChargeSlots>
    <Deleted>false</Deleted>
  </Station>
  <Station>
    <Id>100180</Id>
    <Name>Carmel</Name>
    <Longitude>31.115987674387167</Longitude>
    <Latitude>35.53766191123876</Latitude>
    <AvailableChargeSlots>5</AvailableChargeSlots>
    <Deleted>false</Deleted>
  </Station>
  <Station>
    <Id>100190</Id>
    <Name>Artist</Name>
    <Longitude>32.49536243616387</Longitude>
    <Latitude>35.853682202684546</Latitude>
    <AvailableChargeSlots>7</AvailableChargeSlots>
    <Deleted>false</Deleted>
  </Station>
</ArrayOfStation>